
{"Station":99999903841,"Date":"2009-01-01T23:59:00","Latitude":35.998,"Longitude":-84.2192,"Elevation":310.6,"Name":"OAK RIDGE ATDD, TN US","ReportType":"SOD","Source":{"int":6},"HourlyDryBulbTemperature":null,"HourlySeaLevelPressure":null,"HourlyVisibility":null,"HourlyWindDirection":null,"HourlyWindSpeed":null,"HourlyPrecipitation":null,"HourlyRelativeHumidity":null}
{"Station":72546014933,"Date":"2009-01-01T00:00:00","Latitude":41.53395,"Longitude":-93.65313,"Elevation":286.3,"Name":"DES MOINES INTERNATIONAL AIRPORT, IA US","ReportType":"FM-12","Source":{"int":4},"HourlyDryBulbTemperature":{"double":21.0},"HourlySeaLevelPressure":{"double":30.12},"HourlyVisibility":{"double":9.94},"HourlyWindDirection":{"double":170.0},"HourlyWindSpeed":{"double":14.0},"HourlyPrecipitation":null,"HourlyRelativeHumidity":{"double":57.0}}
{"Station":72646314897,"Date":"2009-01-01T00:54:00","Latitude":44.927497,"Longitude":-89.625279,"Elevation":366.0,"Name":"WAUSAU ASOS, WI US","ReportType":"FM-15","Source":{"int":7},"HourlyDryBulbTemperature":{"double":-1.0},"HourlySeaLevelPressure":{"double":30.19},"HourlyVisibility":{"double":10.0},"HourlyWindDirection":{"double":90.0},"HourlyWindSpeed":{"double":7.0},"HourlyPrecipitation":null,"HourlyRelativeHumidity":{"double":75.0}}
{"Station":72428704848,"Date":"2009-01-01T00:53:00","Latitude":41.56327,"Longitude":-83.47671,"Elevation":189.0,"Name":"TOLEDO EXECUTIVE AIRPORT, OH US","ReportType":"FM-15","Source":{"int":7},"HourlyDryBulbTemperature":{"double":13.0},"HourlySeaLevelPressure":{"double":30.4},"HourlyVisibility":{"double":10.0},"HourlyWindDirection":{"double":270.0},"HourlyWindSpeed":{"double":3.0},"HourlyPrecipitation":null,"HourlyRelativeHumidity":{"double":81.0}}
{"Station":72272803196,"Date":"2009-01-01T00:54:00","Latitude":31.42076,"Longitude":-110.84655,"Elevation":1193.0,"Name":"NOGALES INTERNATIONAL AIRPORT, AZ US","ReportType":"FM-15","Source":{"int":7},"HourlyDryBulbTemperature":{"double":40.0},"HourlySeaLevelPressure":{"double":29.99},"HourlyVisibility":{"double":10.0},"HourlyWindDirection":{"double":90.0},"HourlyWindSpeed":{"double":3.0},"HourlyPrecipitation":null,"HourlyRelativeHumidity":{"double":63.0}}
{"Station":99823399999,"Date":"2009-01-01T00:00:00","Latitude":30.2333333,"Longitude":-88.9833333,"Elevation":13.0,"Name":"GULFPORT OUTER RANGE, MS US","ReportType":"FM-18","Source":{"int":4},"HourlyDryBulbTemperature":{"double":48.0},"HourlySeaLevelPressure":{"double":30.21},"HourlyVisibility":null,"HourlyWindDirection":{"double":40.0},"HourlyWindSpeed":{"double":23.0},"HourlyPrecipitation":null,"HourlyRelativeHumidity":null}
{"Station":72535014848,"Date":"2009-01-01T00:54:00","Latitude":41.70722,"Longitude":-86.31628,"Elevation":235.4,"Name":"SOUTH BEND AIRPORT, IN US","ReportType":"FM-15","Source":{"int":7},"HourlyDryBulbTemperature":{"double":15.0},"HourlySeaLevelPressure":{"double":30.37},"HourlyVisibility":{"double":10.0},"HourlyWindDirection":{"double":190.0},"HourlyWindSpeed":{"double":5.0},"HourlyPrecipitation":null,"HourlyRelativeHumidity":{"double":70.0}}
{"Station":72057599999,"Date":"2009-01-01T00:05:00","Latitude":40.030651,"Longitude":-86.251439,"Elevation":281.02,"Name":"INDIANAPOLIS EXECUTIVE, IN US","ReportType":"AUTO","Source":{"int":4},"HourlyDryBulbTemperature":{"double":19.0},"HourlySeaLevelPressure":null,"HourlyVisibility":{"double":10.0},"HourlyWindDirection":{"double":0.0},"HourlyWindSpeed":{"double":0.0},"HourlyPrecipitation":null,"HourlyRelativeHumidity":{"double":93.0}}
{"Station":72231553917,"Date":"2009-01-01T00:53:00","Latitude":30.04934,"Longitude":-90.02899,"Elevation":0.9,"Name":"NEW ORLEANS LAKEFRONT AIRPORT, LA US","ReportType":"FM-15","Source":{"int":7},"HourlyDryBulbTemperature":{"double":47.0},"HourlySeaLevelPressure":{"double":30.19},"HourlyVisibility":{"double":10.0},"HourlyWindDirection":{"double":60.0},"HourlyWindSpeed":{"double":23.0},"HourlyPrecipitation":null,"HourlyRelativeHumidity":{"double":54.0}}
{"Station":72592024257,"Date":"2009-01-01T00:13:00","Latitude":40.51462,"Longitude":-122.29773,"Elevation":152.6,"Name":"REDDING AIRPORT, CA US","ReportType":"FM-16","Source":{"int":7},"HourlyDryBulbTemperature":{"double":36.0},"HourlySeaLevelPressure":null,"HourlyVisibility":{"double":1.5},"HourlyWindDirection":{"double":110.0},"HourlyWindSpeed":{"double":6.0},"HourlyPrecipitation":null,"HourlyRelativeHumidity":{"double":100.0}}
{"Station":72234354826,"Date":"2009-01-01T00:16:00","Latitude":42.35083,"Longitude":-86.25611,"Elevation":203.0,"Name":"SOUTH HAVEN AREA REGIONAL AIRPORT, MI US","ReportType":"FM-15","Source":{"int":7},"HourlyDryBulbTemperature":{"double":23.0},"HourlySeaLevelPressure":null,"HourlyVisibility":{"double":10.0},"HourlyWindDirection":{"double":0.0},"HourlyWindSpeed":{"double":0.0},"HourlyPrecipitation":null,"HourlyRelativeHumidity":{"double":68.0}}
{"Station":72562024023,"Date":"2009-01-01T00:00:00","Latitude":41.12199,"Longitude":-100.66895,"Elevation":841.9,"Name":"NORTH PLATTE REGIONAL AIRPORT, NE US","ReportType":"FM-12","Source":{"int":4},"HourlyDryBulbTemperature":{"double":25.0},"HourlySeaLevelPressure":{"double":29.82},"HourlyVisibility":{"double":9.94},"HourlyWindDirection":{"double":200.0},"HourlyWindSpeed":{"double":9.0},"HourlyPrecipitation":null,"HourlyRelativeHumidity":{"double":63.0}}
{"Station":72325003847,"Date":"2009-01-01T00:53:00","Latitude":35.95097,"Longitude":-85.08141,"Elevation":568.6,"Name":"CROSSVILLE MEMORIAL AIRPORT, TN US","ReportType":"AUTO","Source":{"int":4},"HourlyDryBulbTemperature":{"double":21.0},"HourlySeaLevelPressure":{"double":30.32},"HourlyVisibility":{"double":10.0},"HourlyWindDirection":{"double":0.0},"HourlyWindSpeed":{"double":0.0},"HourlyPrecipitation":null,"HourlyRelativeHumidity":{"double":74.0}}
{"Station":99798999999,"Date":"2009-01-01T00:00:00","Latitude":43.3333333,"Longitude":-78.7166666,"Elevation":83.0,"Name":"OLCOTT HARBOR, NY US","ReportType":"FM-18","Source":{"int":4},"HourlyDryBulbTemperature":{"double":14.0},"HourlySeaLevelPressure":{"double":30.3},"HourlyVisibility":null,"HourlyWindDirection":{"double":320.0},"HourlyWindSpeed":{"double":17.0},"HourlyPrecipitation":null,"HourlyRelativeHumidity":null}
{"Station":72036263874,"Date":"2009-01-01T00:56:00","Latitude":31.84675,"Longitude":-86.6141,"Elevation":134.8,"Name":"GREENVILLE MAC CRENSHAW MEMORIAL AIRPORT, AL US","ReportType":"FM-15","Source":{"int":7},"HourlyDryBulbTemperature":{"double":35.0},"HourlySeaLevelPressure":{"double":30.21},"HourlyVisibility":{"double":10.0},"HourlyWindDirection":{"double":10.0},"HourlyWindSpeed":{"double":5.0},"HourlyPrecipitation":null,"HourlyRelativeHumidity":{"double":61.0}}
{"Station":72616354770,"Date":"2009-01-01T00:52:00","Latitude":42.80667,"Longitude":-72.00126,"Elevation":308.4,"Name":"JAFFREY MUNICIPAL AIRPORT SILVER RANCH, NH US","ReportType":"FM-15","Source":{"int":7},"HourlyDryBulbTemperature":{"double":1.0},"HourlySeaLevelPressure":{"double":29.85},"HourlyVisibility":{"double":10.0},"HourlyWindDirection":null,"HourlyWindSpeed":{"double":7.0},"HourlyPrecipitation":null,"HourlyRelativeHumidity":{"double":56.0}}
{"Station":72508654734,"Date":"2009-01-01T00:53:00","Latitude":41.37215,"Longitude":-73.48337,"Elevation":138.0,"Name":"DANBURY MUNICIPAL AIRPORT, CT US","ReportType":"FM-15","Source":{"int":7},"HourlyDryBulbTemperature":{"double":8.0},"HourlySeaLevelPressure":{"double":29.96},"HourlyVisibility":{"double":10.0},"HourlyWindDirection":{"double":330.0},"HourlyWindSpeed":{"double":8.0},"HourlyPrecipitation":null,"HourlyRelativeHumidity":{"double":55.0}}
{"Station":72463603013,"Date":"2009-01-01T00:53:00","Latitude":38.07177,"Longitude":-102.68747,"Elevation":1124.0,"Name":"LAMAR MUNICIPAL AIRPORT, CO US","ReportType":"FM-15","Source":{"int":7},"HourlyDryBulbTemperature":{"double":30.0},"HourlySeaLevelPressure":{"double":29.71},"HourlyVisibility":{"double":10.0},"HourlyWindDirection":{"double":230.0},"HourlyWindSpeed":{"double":7.0},"HourlyPrecipitation":null,"HourlyRelativeHumidity":{"double":58.0}}
{"Station":72407493780,"Date":"2009-01-01T00:54:00","Latitude":39.94076,"Longitude":-74.84075,"Elevation":15.2,"Name":"SOUTH JERSEY REGIONAL AIRPORT, NJ US","ReportType":"FM-15","Source":{"int":7},"HourlyDryBulbTemperature":{"double":22.0},"HourlySeaLevelPressure":{"double":30.06},"HourlyVisibility":{"double":10.0},"HourlyWindDirection":{"double":300.0},"HourlyWindSpeed":{"double":11.0},"HourlyPrecipitation":null,"HourlyRelativeHumidity":{"double":46.0}}
{"Station":72344593993,"Date":"2009-01-01T00:53:00","Latitude":36.01027,"Longitude":-94.16824,"Elevation":377.1,"Name":"FAYETTEVILLE DRAKE FIELD, AR US","ReportType":"AUTO","Source":{"int":4},"HourlyDryBulbTemperature":{"double":30.0},"HourlySeaLevelPressure":{"double":30.16},"HourlyVisibility":{"double":10.0},"HourlyWindDirection":{"double":90.0},"HourlyWindSpeed":{"double":7.0},"HourlyPrecipitation":null,"HourlyRelativeHumidity":{"double":43.0}}
{"Station":72254153914,"Date":"2009-01-01T00:53:00","Latitude":33.18286,"Longitude":-96.58988,"Elevation":173.3,"Name":"MCKINNEY MUNICIPAL AIRPORT, TX US","ReportType":"FM-15","Source":{"int":7},"HourlyDryBulbTemperature":{"double":37.0},"HourlySeaLevelPressure":{"double":30.2},"HourlyVisibility":{"double":10.0},"HourlyWindDirection":{"double":120.0},"HourlyWindSpeed":{"double":3.0},"HourlyPrecipitation":null,"HourlyRelativeHumidity":{"double":54.0}}